{
"type": "FeatureCollection",
"crs": { "type": "name", "properties": { "name": "urn:ogc:def:crs:EPSG::4269" } },
"features": [
{ "type": "Feature", "properties": { "GEOID": "54", "STUSPS": "WV", "NAME": "West Virginia", "ALAND": 62266231560, "id": "0400000US54", "total_pop": 1829054.0, "tri_count": 170, "superfund_count": 14, "ALAND_square_miles": 24041.126409619763, "tri_density": 0.0070712160945993188, "superfund_density": 0.00058233544308464982, "pop_density": 76.080212251125076 }, "geometry": { "type": "Point", "coordinates": [ -80.6137068997092, 38.642567026153976 ] } },
{ "type": "Feature", "properties": { "GEOID": "12", "STUSPS": "FL", "NAME": "Florida", "ALAND": 138947364717, "id": "0400000US12", "total_pop": 20598139.0, "tri_count": 684, "superfund_count": 87, "ALAND_square_miles": 53647.87744101818, "tri_density": 0.012749805446674135, "superfund_density": 0.0016216857804980259, "pop_density": 383.95067955197499 }, "geometry": { "type": "Point", "coordinates": [ -82.466418388883795, 28.477058415081189 ] } },
{ "type": "Feature", "properties": { "GEOID": "17", "STUSPS": "IL", "NAME": "Illinois", "ALAND": 143779863817, "id": "0400000US17", "total_pop": 12821497.0, "tri_count": 1031, "superfund_count": 73, "ALAND_square_miles": 55513.715774682605, "tri_density": 0.018571986861491883, "superfund_density": 0.0013149903403384166, "pop_density": 230.96088635175323 }, "geometry": { "type": "Point", "coordinates": [ -89.148640386728246, 40.124198721633846 ] } },
{ "type": "Feature", "properties": { "GEOID": "27", "STUSPS": "MN", "NAME": "Minnesota", "ALAND": 206230065476, "id": "0400000US27", "total_pop": 5527358.0, "tri_count": 508, "superfund_count": 46, "ALAND_square_miles": 79625.873436633541, "tri_density": 0.0063798358256536751, "superfund_density": 0.00057770166925210449, "pop_density": 69.416607459868985 }, "geometry": { "type": "Point", "coordinates": [ -94.198348719913639, 46.349289183887969 ] } },
{ "type": "Feature", "properties": { "GEOID": "24", "STUSPS": "MD", "NAME": "Maryland", "ALAND": 25151726296, "id": "0400000US24", "total_pop": 6003435.0, "tri_count": 161, "superfund_count": 31, "ALAND_square_miles": 9711.1358139543954, "tri_density": 0.016578905195482017, "superfund_density": 0.0031922115593785248, "pop_density": 618.20111622508432 }, "geometry": { "type": "Point", "coordinates": [ -76.687177340980199, 38.946493959175555 ] } },
{ "type": "Feature", "properties": { "GEOID": "44", "STUSPS": "RI", "NAME": "Rhode Island", "ALAND": 2677787140, "id": "0400000US44", "total_pop": 1056611.0, "tri_count": 81, "superfund_count": 37, "ALAND_square_miles": 1033.8993948712025, "tri_density": 0.078344179715948606, "superfund_density": 0.035786847524569114, "pop_density": 1021.9669391833107 }, "geometry": { "type": "Point", "coordinates": [ -71.524723548751211, 41.594638897784129 ] } },
{ "type": "Feature", "properties": { "GEOID": "16", "STUSPS": "ID", "NAME": "Idaho", "ALAND": 214049897859, "id": "0400000US16", "total_pop": 1687809.0, "tri_count": 117, "superfund_count": 26, "ALAND_square_miles": 82645.127599149957, "tri_density": 0.0014156914436321034, "superfund_density": 0.00031459809858491191, "pop_density": 20.42236546825006 }, "geometry": { "type": "Point", "coordinates": [ -114.659414931030867, 44.389054943578536 ] } },
{ "type": "Feature", "properties": { "GEOID": "33", "STUSPS": "NH", "NAME": "New Hampshire", "ALAND": 23189198255, "id": "0400000US33", "total_pop": 1343622.0, "tri_count": 117, "superfund_count": 27, "ALAND_square_miles": 8953.3995011242187, "tri_density": 0.013067662175166996, "superfund_density": 0.0030156143481154603, "pop_density": 150.06836228309598 }, "geometry": { "type": "Point", "coordinates": [ -71.571242793284497, 43.680236921879136 ] } },
{ "type": "Feature", "properties": { "GEOID": "37", "STUSPS": "NC", "NAME": "North Carolina", "ALAND": 125925929633, "id": "0400000US37", "total_pop": 10155624.0, "tri_count": 779, "superfund_count": 48, "ALAND_square_miles": 48620.273247765443, "tri_density": 0.016022123035596109, "superfund_density": 0.0009872424977004021, "pop_density": 208.87632507221144 }, "geometry": { "type": "Point", "coordinates": [ -79.13088404008893, 35.52603675739833 ] } },
{ "type": "Feature", "properties": { "GEOID": "50", "STUSPS": "VT", "NAME": "Vermont", "ALAND": 23874197924, "id": "0400000US50", "total_pop": 624977.0, "tri_count": 37, "superfund_count": 16, "ALAND_square_miles": 9217.8793519259798, "tri_density": 0.0040139384111454266, "superfund_density": 0.0017357571507655898, "pop_density": 67.800518550876632 }, "geometry": { "type": "Point", "coordinates": [ -72.662630812305011, 44.07524794699296 ] } },
{ "type": "Feature", "properties": { "GEOID": "09", "STUSPS": "CT", "NAME": "Connecticut", "ALAND": 12542497381, "id": "0400000US09", "total_pop": 3581504.0, "tri_count": 267, "superfund_count": 47, "ALAND_square_miles": 4842.685312317074, "tri_density": 0.055134699609925474, "superfund_density": 0.0097053591073651586, "pop_density": 739.56983966946268 }, "geometry": { "type": "Point", "coordinates": [ -72.738257674179295, 41.575164150071799 ] } },
{ "type": "Feature", "properties": { "GEOID": "10", "STUSPS": "DE", "NAME": "Delaware", "ALAND": 5046620081, "id": "0400000US10", "total_pop": 949495.0, "tri_count": 60, "superfund_count": 23, "ALAND_square_miles": 1948.5109066177529, "tri_density": 0.030792745268307824, "superfund_density": 0.011803885686184666, "pop_density": 487.29262780886563 }, "geometry": { "type": "Point", "coordinates": [ -75.452492578378212, 38.994974845423933 ] } },
{ "type": "Feature", "properties": { "GEOID": "35", "STUSPS": "NM", "NAME": "New Mexico", "ALAND": 314197253999, "id": "0400000US35", "total_pop": 2092434.0, "tri_count": 72, "superfund_count": 20, "ALAND_square_miles": 121312.23797712302, "tri_density": 0.00059350978269461744, "superfund_density": 0.00016486382852628261, "pop_density": 17.248334008928182 }, "geometry": { "type": "Point", "coordinates": [ -106.108443861830693, 34.4213012848139 ] } },
{ "type": "Feature", "properties": { "GEOID": "06", "STUSPS": "CA", "NAME": "California", "ALAND": 403660088482, "id": "0400000US06", "total_pop": 39148760.0, "tri_count": 1208, "superfund_count": 137, "ALAND_square_miles": 155854.03148033487, "tri_density": 0.0077508421728084802, "superfund_density": 0.00087902763052546506, "pop_density": 251.18862584532923 }, "geometry": { "type": "Point", "coordinates": [ -119.663869752476202, 37.21533150427247 ] } },
{ "type": "Feature", "properties": { "GEOID": "34", "STUSPS": "NJ", "NAME": "New Jersey", "ALAND": 19048848841, "id": "0400000US34", "total_pop": 8881845.0, "tri_count": 342, "superfund_count": 164, "ALAND_square_miles": 7354.8016552588679, "tri_density": 0.046500234272866002, "superfund_density": 0.022298357955409426, "pop_density": 1207.6253604540454 }, "geometry": { "type": "Point", "coordinates": [ -74.655612463530218, 40.110179769133318 ] } },
{ "type": "Feature", "properties": { "GEOID": "55", "STUSPS": "WI", "NAME": "Wisconsin", "ALAND": 140293020078, "id": "0400000US55", "total_pop": 5778394.0, "tri_count": 852, "superfund_count": 46, "ALAND_square_miles": 54167.437880554491, "tri_density": 0.015729006822858396, "superfund_density": 0.00084921867822944396, "pop_density": 106.67652423845543 }, "geometry": { "type": "Point", "coordinates": [ -89.732968024083277, 44.639942960668577 ] } },
{ "type": "Feature", "properties": { "GEOID": "41", "STUSPS": "OR", "NAME": "Oregon", "ALAND": 248607777514, "id": "0400000US41", "total_pop": 4081943.0, "tri_count": 280, "superfund_count": 33, "ALAND_square_miles": 95987.999528595523, "tri_density": 0.00291703130990438, "superfund_density": 0.00034379297581015907, "pop_density": 42.52555548658934 }, "geometry": { "type": "Point", "coordinates": [ -120.605256220369554, 43.940451387357669 ] } },
{ "type": "Feature", "properties": { "GEOID": "31", "STUSPS": "NE", "NAME": "Nebraska", "ALAND": 198953801353, "id": "0400000US31", "total_pop": 1904760.0, "tri_count": 206, "superfund_count": 45, "ALAND_square_miles": 76816.492152618273, "tri_density": 0.0026817157908059792, "superfund_density": 0.00058581170187509254, "pop_density": 24.796237716968918 }, "geometry": { "type": "Point", "coordinates": [ -99.81086234957445, 41.527147932702583 ] } },
{ "type": "Feature", "properties": { "GEOID": "42", "STUSPS": "PA", "NAME": "Pennsylvania", "ALAND": 115880457407, "id": "0400000US42", "total_pop": 12791181.0, "tri_count": 1112, "superfund_count": 132, "ALAND_square_miles": 44741.694737728656, "tri_density": 0.024853774684182907, "superfund_density": 0.002950268217906604, "pop_density": 285.88950586205158 }, "geometry": { "type": "Point", "coordinates": [ -77.838937995605477, 40.896700502251534 ] } },
{ "type": "Feature", "properties": { "GEOID": "53", "STUSPS": "WA", "NAME": "Washington", "ALAND": 172117954267, "id": "0400000US53", "total_pop": 7294336.0, "tri_count": 320, "superfund_count": 126, "ALAND_square_miles": 66455.113666398669, "tri_density": 0.0048152803049346044, "superfund_density": 0.0018960166200680006, "pop_density": 109.76335149492333 }, "geometry": { "type": "Point", "coordinates": [ -120.592818956109554, 47.41161850353452 ] } },
{ "type": "Feature", "properties": { "GEOID": "22", "STUSPS": "LA", "NAME": "Louisiana", "ALAND": 111899106382, "id": "0400000US22", "total_pop": 4663616.0, "tri_count": 372, "superfund_count": 31, "ALAND_square_miles": 43204.486513060976, "tri_density": 0.0086102169016067844, "superfund_density": 0.00071751807513389877, "pop_density": 107.94286372527911 }, "geometry": { "type": "Point", "coordinates": [ -91.814232681001783, 30.909071344936301 ] } },
{ "type": "Feature", "properties": { "GEOID": "13", "STUSPS": "GA", "NAME": "Georgia", "ALAND": 149484604230, "id": "0400000US13", "total_pop": 10297484.0, "tri_count": 697, "superfund_count": 24, "ALAND_square_miles": 57716.328362066226, "tri_density": 0.01207630526369553, "superfund_density": 0.00041582686704260075, "pop_density": 178.41543792255453 }, "geometry": { "type": "Point", "coordinates": [ -83.427246263090851, 32.638641836979723 ] } },
{ "type": "Feature", "properties": { "GEOID": "01", "STUSPS": "AL", "NAME": "Alabama", "ALAND": 131174192284, "id": "0400000US01", "total_pop": 4864680.0, "tri_count": 568, "superfund_count": 20, "ALAND_square_miles": 50646.638785914241, "tri_density": 0.011214959444810605, "superfund_density": 0.00039489293819755647, "pop_density": 96.051388929544459 }, "geometry": { "type": "Point", "coordinates": [ -86.844520984902459, 32.756879932397702 ] } },
{ "type": "Feature", "properties": { "GEOID": "49", "STUSPS": "UT", "NAME": "Utah", "ALAND": 213355135666, "id": "0400000US49", "total_pop": 3045350.0, "tri_count": 186, "superfund_count": 36, "ALAND_square_miles": 82376.878416758977, "tri_density": 0.002257915128308135, "superfund_density": 0.00043701583128544555, "pop_density": 36.968504494586988 }, "geometry": { "type": "Point", "coordinates": [ -111.6782499535977, 39.323768711886409 ] } },
{ "type": "Feature", "properties": { "GEOID": "39", "STUSPS": "OH", "NAME": "Ohio", "ALAND": 105823701267, "id": "0400000US39", "total_pop": 11641879.0, "tri_count": 1315, "superfund_count": 52, "ALAND_square_miles": 40858.759484139657, "tri_density": 0.032184041233813035, "superfund_density": 0.0012726769157097167, "pop_density": 284.92982036126392 }, "geometry": { "type": "Point", "coordinates": [ -82.709377239123086, 40.415487035729726 ] } },
{ "type": "Feature", "properties": { "GEOID": "48", "STUSPS": "TX", "NAME": "Texas", "ALAND": 676668210823, "id": "0400000US48", "total_pop": 27885195.0, "tri_count": 1796, "superfund_count": 68, "ALAND_square_miles": 261263.0568158151, "tri_density": 0.0068742975830147386, "superfund_density": 0.00026027407329899899, "pop_density": 106.73225422627766 }, "geometry": { "type": "Point", "coordinates": [ -99.31711694240623, 31.447201788145971 ] } },
{ "type": "Feature", "properties": { "GEOID": "08", "STUSPS": "CO", "NAME": "Colorado", "ALAND": 268419875371, "id": "0400000US08", "total_pop": 5531141.0, "tri_count": 242, "superfund_count": 35, "ALAND_square_miles": 103637.4932764374, "tri_density": 0.0023350622670359408, "superfund_density": 0.00033771561713329725, "pop_density": 53.370077036179509 }, "geometry": { "type": "Point", "coordinates": [ -105.54782080150963, 38.998532031209358 ] } },
{ "type": "Feature", "properties": { "GEOID": "45", "STUSPS": "SC", "NAME": "South Carolina", "ALAND": 77864659170, "id": "0400000US45", "total_pop": 4955925.0, "tri_count": 523, "superfund_count": 33, "ALAND_square_miles": 30063.712979708849, "tri_density": 0.017396387477255144, "superfund_density": 0.0010976688083162902, "pop_density": 164.84740269257304 }, "geometry": { "type": "Point", "coordinates": [ -80.864588087759103, 33.877749405611375 ] } },
{ "type": "Feature", "properties": { "GEOID": "40", "STUSPS": "OK", "NAME": "Oklahoma", "ALAND": 177662675149, "id": "0400000US40", "total_pop": 3918137.0, "tri_count": 377, "superfund_count": 18, "ALAND_square_miles": 68595.942367454249, "tri_density": 0.0054959519031095036, "superfund_density": 0.00026240619166040068, "pop_density": 57.119078254094859 }, "geometry": { "type": "Point", "coordinates": [ -97.508242765265152, 35.583466439803935 ] } },
{ "type": "Feature", "properties": { "GEOID": "47", "STUSPS": "TN", "NAME": "Tennessee", "ALAND": 106805839178, "id": "0400000US47", "total_pop": 6651089.0, "tri_count": 606, "superfund_count": 25, "ALAND_square_miles": 41237.965051563129, "tri_density": 0.014695196507448166, "superfund_density": 0.00060623747968020488, "pop_density": 161.28557729954935 }, "geometry": { "type": "Point", "coordinates": [ -86.343412305427435, 35.842980139111638 ] } },
{ "type": "Feature", "properties": { "GEOID": "56", "STUSPS": "WY", "NAME": "Wyoming", "ALAND": 251458578211, "id": "0400000US56", "total_pop": 581836.0, "tri_count": 54, "superfund_count": 3, "ALAND_square_miles": 97088.699831281541, "tri_density": 0.00055619243118756282, "superfund_density": 3.0899579510420157e-05, "pop_density": 5.9928292480082739 }, "geometry": { "type": "Point", "coordinates": [ -107.551395881916832, 42.999538281945327 ] } },
{ "type": "Feature", "properties": { "GEOID": "15", "STUSPS": "HI", "NAME": "Hawaii", "ALAND": 16634006436, "id": "0400000US15", "total_pop": 1422029.0, "tri_count": 31, "superfund_count": 20, "ALAND_square_miles": 6422.4257901485362, "tri_density": 0.0048268366210710298, "superfund_density": 0.0031140881426264711, "pop_density": 221.4161823685489 }, "geometry": { "type": "Point", "coordinates": [ -158.109973806952866, 20.995111199068745 ] } },
{ "type": "Feature", "properties": { "GEOID": "38", "STUSPS": "ND", "NAME": "North Dakota", "ALAND": 178695635183, "id": "0400000US38", "total_pop": 752201.0, "tri_count": 77, "superfund_count": 2, "ALAND_square_miles": 68994.770466269722, "tri_density": 0.0011160266130263291, "superfund_density": 2.8987704234450108e-05, "pop_density": 10.902290056428802 }, "geometry": { "type": "Point", "coordinates": [ -100.469318207128438, 47.446314063606295 ] } },
{ "type": "Feature", "properties": { "GEOID": "21", "STUSPS": "KY", "NAME": "Kentucky", "ALAND": 102282218059, "id": "0400000US21", "total_pop": 4440204.0, "tri_count": 421, "superfund_count": 20, "ALAND_square_miles": 39491.385173089031, "tri_density": 0.010660552881464534, "superfund_density": 0.00050643956681541721, "pop_density": 112.43474951660414 }, "geometry": { "type": "Point", "coordinates": [ -85.290558439731058, 37.526614847430956 ] } },
{ "type": "Feature", "properties": { "GEOID": "78", "STUSPS": "VI", "NAME": "United States Virgin Islands", "ALAND": 348021896, "id": null, "total_pop": null, "tri_count": 6, "superfund_count": 5, "ALAND_square_miles": 134.37200526563458, "tri_density": 0.044652157926339212, "superfund_density": 0.037210131605282679, "pop_density": null }, "geometry": { "type": "Point", "coordinates": [ -64.839036954470089, 18.059817909030208 ] } },
{ "type": "Feature", "properties": { "GEOID": "69", "STUSPS": "MP", "NAME": "Commonwealth of the Northern Mariana Islands", "ALAND": 472292529, "id": null, "total_pop": null, "tri_count": 8, "superfund_count": 1, "ALAND_square_miles": 182.35316491037071, "tri_density": 0.043870913915489862, "superfund_density": 0.0054838642394362327, "pop_density": null }, "geometry": { "type": "Point", "coordinates": [ 145.595722436183934, 16.817085397243936 ] } },
{ "type": "Feature", "properties": { "GEOID": "66", "STUSPS": "GU", "NAME": "Guam", "ALAND": 543555844, "id": null, "total_pop": null, "tri_count": 9, "superfund_count": 2, "ALAND_square_miles": 209.86808465676094, "tri_density": 0.0428840812776249, "superfund_density": 0.0095297958394722007, "pop_density": null }, "geometry": { "type": "Point", "coordinates": [ 144.769451697331277, 13.44275954785126 ] } },
{ "type": "Feature", "properties": { "GEOID": "23", "STUSPS": "ME", "NAME": "Maine", "ALAND": 79887659040, "id": "0400000US23", "total_pop": 1332813.0, "tri_count": 82, "superfund_count": 17, "ALAND_square_miles": 30844.797596246935, "tri_density": 0.002658471002901877, "superfund_density": 0.00055114642743087701, "pop_density": 43.210301375495845 }, "geometry": { "type": "Point", "coordinates": [ -69.20275929512178, 45.27432188613956 ] } },
{ "type": "Feature", "properties": { "GEOID": "36", "STUSPS": "NY", "NAME": "New York", "ALAND": 122050000805, "id": "0400000US36", "total_pop": 19618453.0, "tri_count": 623, "superfund_count": 120, "ALAND_square_miles": 47123.768760917752, "tri_density": 0.013220504564496697, "superfund_density": 0.0025464856304006477, "pop_density": 416.31757212658732 }, "geometry": { "type": "Point", "coordinates": [ -75.596543220306586, 42.921233547661181 ] } },
{ "type": "Feature", "properties": { "GEOID": "32", "STUSPS": "NV", "NAME": "Nevada", "ALAND": 284537049864, "id": "0400000US32", "total_pop": 2922849.0, "tri_count": 141, "superfund_count": 1, "ALAND_square_miles": 109860.36913778994, "tri_density": 0.0012834473532776307, "superfund_density": 9.1024634984229126e-06, "pop_density": 26.605126333901911 }, "geometry": { "type": "Point", "coordinates": [ -116.655248435896681, 39.356185386933987 ] } },
{ "type": "Feature", "properties": { "GEOID": "02", "STUSPS": "AK", "NAME": "Alaska", "ALAND": 1478927050067, "id": "0400000US02", "total_pop": 738516.0, "tri_count": 30, "superfund_count": 10, "ALAND_square_miles": 571016.92635768058, "tri_density": 5.2537847155179132e-05, "superfund_density": 1.7512615718393044e-05, "pop_density": 1.2933346909884758 }, "geometry": { "type": "Point", "coordinates": [ -151.600605274697216, 63.736639960072061 ] } },
{ "type": "Feature", "properties": { "GEOID": "60", "STUSPS": "AS", "NAME": "American Samoa", "ALAND": 197759069, "id": null, "total_pop": null, "tri_count": 1, "superfund_count": 1, "ALAND_square_miles": 76.355203412244478, "tri_density": 0.013096684381822208, "superfund_density": 0.013096684381822208, "pop_density": null }, "geometry": { "type": "Point", "coordinates": [ -170.079591783776806, -13.966019236292304 ] } },
{ "type": "Feature", "properties": { "GEOID": "26", "STUSPS": "MI", "NAME": "Michigan", "ALAND": 146608689865, "id": "0400000US26", "total_pop": 9957488.0, "tri_count": 758, "superfund_count": 96, "ALAND_square_miles": 56605.931617956499, "tri_density": 0.01339082280485863, "superfund_density": 0.0016959353420401429, "pop_density": 175.90891476188145 }, "geometry": { "type": "Point", "coordinates": [ -85.730952991143184, 44.87477377147065 ] } },
{ "type": "Feature", "properties": { "GEOID": "05", "STUSPS": "AR", "NAME": "Arkansas", "ALAND": 134776580080, "id": "0400000US05", "total_pop": 2990671.0, "tri_count": 363, "superfund_count": 20, "ALAND_square_miles": 52037.528489856806, "tri_density": 0.0069757348308876008, "superfund_density": 0.00038433800721143806, "pop_density": 57.47142661825194 }, "geometry": { "type": "Point", "coordinates": [ -92.43924961348506, 34.89978279570046 ] } },
{ "type": "Feature", "properties": { "GEOID": "28", "STUSPS": "MS", "NAME": "Mississippi", "ALAND": 121536584987, "id": "0400000US28", "total_pop": 2988762.0, "tri_count": 318, "superfund_count": 13, "ALAND_square_miles": 46925.537805358115, "tri_density": 0.0067766937764044055, "superfund_density": 0.00027703465123665808, "pop_density": 63.691587561490515 }, "geometry": { "type": "Point", "coordinates": [ -89.653359422646403, 32.712892123851184 ] } },
{ "type": "Feature", "properties": { "GEOID": "29", "STUSPS": "MO", "NAME": "Missouri", "ALAND": 178049911275, "id": "0400000US29", "total_pop": 6090062.0, "tri_count": 502, "superfund_count": 75, "ALAND_square_miles": 68745.45507156846, "tri_density": 0.0073023009226920611, "superfund_density": 0.0010909812135496107, "pop_density": 88.588576418031593 }, "geometry": { "type": "Point", "coordinates": [ -92.477422218077166, 38.36763880708429 ] } },
{ "type": "Feature", "properties": { "GEOID": "30", "STUSPS": "MT", "NAME": "Montana", "ALAND": 376966832749, "id": "0400000US30", "total_pop": 1041732.0, "tri_count": 61, "superfund_count": 20, "ALAND_square_miles": 145547.70782329806, "tri_density": 0.00041910656589698371, "superfund_density": 0.0001374119888186832, "pop_density": 7.1573232968032237 }, "geometry": { "type": "Point", "coordinates": [ -109.645151045697418, 47.033423914753222 ] } },
{ "type": "Feature", "properties": { "GEOID": "20", "STUSPS": "KS", "NAME": "Kansas", "ALAND": 211753474780, "id": "0400000US20", "total_pop": 2908776.0, "tri_count": 315, "superfund_count": 23, "ALAND_square_miles": 81758.473691421372, "tri_density": 0.0038528116509231243, "superfund_density": 0.00028131640625787894, "pop_density": 35.577670040398608 }, "geometry": { "type": "Point", "coordinates": [ -98.38015544941149, 38.484727052846935 ] } },
{ "type": "Feature", "properties": { "GEOID": "18", "STUSPS": "IN", "NAME": "Indiana", "ALAND": 92790048198, "id": "0400000US18", "total_pop": 6637426.0, "tri_count": 902, "superfund_count": 62, "ALAND_square_miles": 35826.437900505385, "tri_density": 0.025176937838614313, "superfund_density": 0.0017305655720555293, "pop_density": 185.26614391397169 }, "geometry": { "type": "Point", "coordinates": [ -86.281838517229843, 39.919869710484122 ] } },
{ "type": "Feature", "properties": { "GEOID": "72", "STUSPS": "PR", "NAME": "Puerto Rico", "ALAND": 8868701898, "id": "0400000US72", "total_pop": 3386941.0, "tri_count": 103, "superfund_count": 24, "ALAND_square_miles": 3424.2249462872865, "tri_density": 0.03007979955045818, "superfund_density": 0.0070088853321455952, "pop_density": 989.11171232260563 }, "geometry": { "type": "Point", "coordinates": [ -66.414666784026409, 18.215698337311306 ] } },
{ "type": "Feature", "properties": { "GEOID": "46", "STUSPS": "SD", "NAME": "South Dakota", "ALAND": 196346195316, "id": "0400000US46", "total_pop": 864289.0, "tri_count": 102, "superfund_count": 4, "ALAND_square_miles": 75809.689833104261, "tri_density": 0.0013454744403328116, "superfund_density": 5.2763703542463202e-05, "pop_density": 11.400772142752995 }, "geometry": { "type": "Point", "coordinates": [ -100.230457624160707, 44.436132995709606 ] } },
{ "type": "Feature", "properties": { "GEOID": "25", "STUSPS": "MA", "NAME": "Massachusetts", "ALAND": 20204387828, "id": "0400000US25", "total_pop": 6830193.0, "tri_count": 383, "superfund_count": 60, "ALAND_square_miles": 7800.9577524195192, "tri_density": 0.049096535599261512, "superfund_density": 0.0076913632792576783, "pop_density": 875.55826050738062 }, "geometry": { "type": "Point", "coordinates": [ -71.503972261186121, 42.160092938350971 ] } },
{ "type": "Feature", "properties": { "GEOID": "51", "STUSPS": "VA", "NAME": "Virginia", "ALAND": 102258306285, "id": "0400000US51", "total_pop": 8413774.0, "tri_count": 423, "superfund_count": 36, "ALAND_square_miles": 39482.152785533057, "tri_density": 0.010713701512117002, "superfund_density": 0.00091180438400995762, "pop_density": 213.10322275747214 }, "geometry": { "type": "Point", "coordinates": [ -78.666356399980486, 37.510871103047975 ] } },
{ "type": "Feature", "properties": { "GEOID": "11", "STUSPS": "DC", "NAME": "District of Columbia", "ALAND": 158340389, "id": "0400000US11", "total_pop": 684498.0, "tri_count": 11, "superfund_count": 1, "ALAND_square_miles": 61.135565977350545, "tri_density": 0.17992799811610921, "superfund_density": 0.016357090737828112, "pop_density": 11196.395895861866 }, "geometry": { "type": "Point", "coordinates": [ -77.016302670176174, 38.904773714587094 ] } },
{ "type": "Feature", "properties": { "GEOID": "19", "STUSPS": "IA", "NAME": "Iowa", "ALAND": 144660467237, "id": "0400000US19", "total_pop": 3132499.0, "tri_count": 484, "superfund_count": 36, "ALAND_square_miles": 55853.718655964462, "tri_density": 0.00866549285610216, "superfund_density": 0.00064454079094974752, "pop_density": 56.083982864147025 }, "geometry": { "type": "Point", "coordinates": [ -93.500090066591582, 42.074648340655465 ] } },
{ "type": "Feature", "properties": { "GEOID": "04", "STUSPS": "AZ", "NAME": "Arizona", "ALAND": 294360282618, "id": "0400000US04", "total_pop": 6946685.0, "tri_count": 263, "superfund_count": 18, "ALAND_square_miles": 113653.1405079742, "tri_density": 0.0023140583605918679, "superfund_density": 0.0001583766178351849, "pop_density": 61.121804192578409 }, "geometry": { "type": "Point", "coordinates": [ -111.664446293562563, 34.293143622119054 ] } }
]
}
